[
  {"id":"MYKL0001",
    "name":"KL Sentral",
    "address":"Kuala Lumpur Sentral, 50470 Kuala Lumpur, Federal Territory of Kuala Lumpur, Malaysia",
    "latitude":"3.134304",
    "longitude":"101.686032"},
  {"id":"MYKL0002",
    "name":"Bandar Tasik Selatan",
    "address":"Kuala Lumpur Middle Ring Road 2, Bandar Tasik Selatan, Kuala Lumpur, Malaysia.",
    "latitude":"3.076111",
    "longitude":"101.710556"},
  {"id":"MYKL0003",
    "name":"Putrajaya and Cyberjaya",
    "address":"Presint 7, 62000 Putrajaya, Malaysia",
    "latitude":"2.931528",
    "longitude":"101.670944"},
  {"id":"MYKL0004",
    "name":"Salak Tinggi",
    "address":"Bandar Baru Salak Tinggi, 43900 Sepang, Selangor, Malaysia",
    "latitude":"2.825621",
    "longitude":"101.713150"},
  {"id":"MYKL0005",
    "name":"Kuala Lumpur International Airport(KLIA)",
    "address":"Kuala Lumpur International Airport, Level 1, Jalan Cta 4b, 43909 Sepang, Malaysia",
    "latitude":"2.754282",
    "longitude":"101.704605"},
  {"id":"MYKL0118",
    "name":"Kuala Lumpur International Airport2(KLIA2)",
    "address":"Kuala Lumpur International Airport,  43900 Sepang, Malaysia",
    "latitude":"2.744776",
    "longitude":"101.685121"},
  {"id":"MYKL0006",
    "name":"Titiwangsa",
    "address":"Jalan Tun Razak, Titiwangsa 50400 WP Kuala Lumpur",
    "latitude":"3.173056",
    "longitude":"101.695278"},
  {"id":"MYKL0007",
    "name":"Chow Kit",
    "address":"50350 Kuala Lumpur, Federal Territory of Kuala Lumpur, Malaysia",
    "latitude":"3.167222",
    "longitude":"101.698056"},
  {"id":"MYKL0008",
    "name":"Medan Tuanku",
    "address":"Jalan Sultan Ismail, Medan Tuanku, Kuala Lumpur, Malaysia.",
    "latitude":"3.159167",
    "longitude":"101.698611"},
  {"id":"MYKL0009",
    "name":"Bukit Nanas",
    "address":"Kuala Lumpur, 50250 Kuala Lumpur, Federal Territory of Kuala Lumpur, Malaysia",
    "latitude":"3.156111",
    "longitude":"101.704444"},
  {"id":"MYKL0010",
    "name":"Raja Chulan",
    "address":"Jalan Sultan Ismail, Kuala Lumpur, 50450 Kuala Lumpur, Wilayah Persekutuan Kuala Lumpur, Malaysia",
    "latitude":"3.150556",
    "longitude":"101.710278"},
  {"id":"MYKL0011",
    "name":"Bukit Bintang",
    "address":"Jalan Sultan Ismail, Bukit Bintang, 55100 Kuala Lumpur, Wilayah Persekutuan Kuala Lumpur, Malaysia",
    "latitude":"3.145833",
    "longitude":"101.711111"},
  {"id":"MYKL0012",
    "name":"Imbi",
    "address":"Imbi, 55100 Kuala Lumpur, Federal Territory of Kuala Lumpur, Malaysia",
    "latitude":"3.142778",
    "longitude":"101.709167"},
  {"id":"MYKL0013",
    "name":"Hang Tuah",
    "address":"Jalan Hang Tuah, Pudu 55200 WP Kuala Lumpur",
    "latitude":"3.14",
    "longitude":"101.705833"},
  {"id":"MYKL0014",
    "name":"Maharajalela",
    "address":"Jalan Maharajalela, Kuala Lumpur, Malaysia.",
    "latitude":"3.138889",
    "longitude":"101.698889"},
  {"id":"MYKL0015",
    "name":"Tun Sambanthan",
    "address":"Brickfields, 50470 Kuala Lumpur, Federal Territory of Kuala Lumpur, Malaysia",
    "latitude":"3.131389",
    "longitude":"101.690556"},
  {"id":"MYKL0017",
    "name":"Putra",
    "address":"Kuala Lumpur, 50480 Kuala Lumpur, Federal Territory of Kuala Lumpur, Malaysia",
    "latitude":"3.165278",
    "longitude":"101.690833"},
  {"id":"MYKL0018",
    "name":"Sentul(KTM)",
    "address":"Bandar Baru Sentul, 51000 Kuala Lumpur, Federal Territory of Kuala Lumpur, Malaysia",
    "latitude":"3.178633",
    "longitude":"101.695485"},
  {"id":"MYKL0019",
    "name":"Mid Valley",
    "address":"Mid Valley City, 58000 Kuala Lumpur, Federal Territory of Kuala Lumpur, Malaysia",
    "latitude":"3.118333",
    "longitude":"101.678611"},
  {"id":"MYKL0020",
    "name":"Petaling",
    "address":"Kampung Pasir, 59200 Kuala Lumpur, Federal Territory of Kuala Lumpur, Malaysia",
    "latitude":"3.086080",
    "longitude":"101.664211"},
  {"id":"MYKL0022",
    "name":"Segambut",
    "address":"Dutamas, 51200 Kuala Lumpur, Federal Territory of Kuala Lumpur, Malaysia",
    "latitude":"3.186389",
    "longitude":"101.664167"},
  {"id":"MYKL0023",
    "name":"Pantai Dalam",
    "address":"Jalan Pantai Dalam, 59200 Kuala Lumpur, Wilayah Persekutuan Kuala Lumpur, Malaysia",
    "latitude":"3.095596",
    "longitude":"101.669988"},
  {"id":"MYKL0024",
    "name":"Kg.Dato Harun",
    "address":"Pjs 51, 46000 Petaling Jaya, Selangor, Malaysia",
    "latitude":"3.084455",
    "longitude":"101.632179"},
  {"id":"MYKL0025",
    "name":"Sungai Buloh",
    "address":"Sungai Buloh, Selangor, Malaysia",
    "latitude":"3.206111",
    "longitude":"101.580278"},
  {"id":"MYKL0026",
    "name":"Serdang",
    "address":"Taman Muhibbah, 43300 Seri Kembangan, Selangor, Malaysia",
    "latitude":"3.023071",
    "longitude":"101.715830"},
  {"id":"MYKL0027",
    "name":"Setia Jaya",
    "address":"Ss 10, 46150 Petaling Jaya, Selangor, Malaysia",
    "latitude":"3.083066",
    "longitude":"101.611111"},
  {"id":"MYKL0028",
    "name":"Subang Jaya",
    "address":"Jalan Kemajuan Subang, Ss 16, 47500 Subang Jaya, Selangor, Malaysia",
    "latitude":"3.084722",
    "longitude":"101.588056"},
  {"id":"MYKL0029",
    "name":"Bank Negara",
    "address":"Jalan Dato' Onn, Kuala Lumpur, 50480 Kuala Lumpur, Federal Territory of Kuala Lumpur, Malaysia",
    "latitude":"3.154444",
    "longitude":"101.692778"},
  {"id":"MYKL0030",
    "name":"Kuala Lumpur",
    "address":"Bangunan Stesen Keretapi, Jalan Hishamuddin, 50000 Kuala Lumpur, Malaysia",
    "latitude":"3.139672",
    "longitude":"101.693480"},
  {"id":"MYKL0032",
    "name":"Angkasapuri",
    "address":"Foot of Putra Hill (Bukit Putra), Kerinchi, 58000,  Kuala Lumpur, Malaysia.",
    "latitude":"3.113066",
    "longitude":"101.673312"},
  {"id":"MYKL0033",
    "name":"Jalan Templer",
    "address":"Seksyen 1a, 46000 Petaling Jaya, Selangor, Malaysia",
    "latitude":"3.083323",
    "longitude":"101.656367"},
  {"id":"MYKL0034",
    "name":"Seri Setia",
    "address":"Ss 10, 46150 Petaling Jaya, Selangor, Malaysia",
    "latitude":"3.084434",
    "longitude":"101.621667"},
  {"id":"MYKL0035",
    "name":"Batu Tiga",
    "address":"40150 Shah Alam, Selangor, Malaysia",
    "latitude":"3.075886",
    "longitude":"101.559726"},
  {"id":"MYKL0036",
    "name":"Shah Alam",
    "address":"Seksyen 19, Shah Alam, Selangor, Malaysia.",
    "latitude":"3.056389",
    "longitude":"101.525556"},
  {"id":"MYKL0037",
    "name":"Padang Jawa",
    "address":"Kampung Padang Jawa, 40200 Shah Alam, Selangor, Malaysia",
    "latitude":"3.052254",
    "longitude":"101.492523"},
  {"id":"MYKL0038",
    "name":"Bukit Badak",
    "address":"41000 Shah Alam, Selangor, Malaysia",
    "latitude":"3.035844",
    "longitude":"101.470268"},
  {"id":"MYKL0039",
    "name":"Klang",
    "address":"Stesen KTM Klang, 41000 Klang, Selangor, Kawasan 1, 41000 Klang, Selangor, Malaysia",
    "latitude":"3.042935",
    "longitude":"101.449685"},
  {"id":"MYKL0040",
    "name":"Teluk Pulai",
    "address":"Stesen Komuter Teluk Pulai, Jalan Sungai Udang, Selangor, Taman Teluk Pulai, 41000 Klang, Selangor, Malaysia",
    "latitude":"3.039796",
    "longitude":"101.431170"},
  {"id":"MYKL0041",
    "name":"Teluk Gadong",
    "address":"Teluk Gadong, 41200 Klang, Selangor, Malaysia",
    "latitude":"3.033889",
    "longitude":"101.425000"},
  {"id":"MYKL0042",
    "name":"Kg Raja Uda",
    "address":"Kampung Sungai Sireh Tambahan, 42000 Port Klang, Selangor, Malaysia",
    "latitude":"3.020288",
    "longitude":"101.410252"},
  {"id":"MYKL0043",
    "name":"Jalan Kastam",
    "address":"Kampung Keretapi, 42000 Port Klang, Selangor, Malaysia",
    "latitude":"3.013066",
    "longitude":"101.402479"},
  {"id":"MYKL0044",
    "name":"Pel.Klang",
    "address":"Kommuter Stn Pelabuhan Klang, Kawasan 13, 42000 Pelabuhan Klang, Selangor, Malaysia",
    "latitude":"2.999167",
    "longitude":"101.391667"},
  {"id":"MYKL0045",
    "name":"Rawang",
    "address":"48000 Rawang, Selangor, Malaysia",
    "latitude":"3.318889",
    "longitude":"101.575278"},
  {"id":"MYKL0046",
    "name":"Kuang",
    "address":"Kuang, Gombak, Selangor, Malaysia.",
    "latitude":"3.258056",
    "longitude":"101.555"},
  {"id":"MYKL0047",
    "name":"Kepong Sentral",
    "address":"Bandar Sri Damansara, Petaling Jaya, Selangor",
    "latitude":"3.208611",
    "longitude":"101.628333"},
  {"id":"MYKL0048",
    "name":"Kepong",
    "address":"Stesen KTM Kepong, 52100 Kuala Lumpur, Federal Territory of Kuala Lumpur, Malaysia",
    "latitude":"3.202778",
    "longitude":"101.6375"},
  {"id":"MYKL0049",
    "name":"Seputeh",
    "address":"58000 Kuala Lumpur, Federal Territory of Kuala Lumpur, Malaysia",
    "latitude":"3.113333",
    "longitude":"101.681389"},
  {"id":"MYKL0050",
    "name":"Salak Selatan(KTM)",
    "address":"Salak South, Kuala Lumpur, Malaysia.",
    "latitude":"3.098023",
    "longitude":"101.705299"},
  {"id":"MYKL0051",
    "name":"Kajang",
    "address":"Jalan Bukit, Taman Bukit, 43000 Kajang, Selangor, Malaysia",
    "latitude":"2.982410",
    "longitude":"101.790576"},
  {"id":"MYKL0052",
    "name":"UKM",
    "address":"Stesen KTM UKM, 43000 Bangi, Selangor, 43600 Bangi, Selangor, Malaysia.",
    "latitude":"2.939750",
    "longitude":"101.787621"},
  {"id":"MYKL0053",
    "name":"Bangi",
    "address":"43600 Kajang, Selangor, Malaysia",
    "latitude":"2.904135",
    "longitude":"101.786111"},
  {"id":"MYKL0054",
    "name":"Batang Benar",
    "address":"Kampung Sungai Mahang, 71800 Nilai, Negeri Sembilan, Malaysia",
    "latitude":"2.83",
    "longitude":"101.826667"},
  {"id":"MYKL0055",
    "name":"Nilai",
    "address":"Nilai, Negeri Sembilan, Malaysia.",
    "latitude":"2.802222",
    "longitude":"101.799444"},
  {"id":"MYKL0056",
    "name":"Labu",
    "address":"Labu, Negeri Sembilan, Malaysia.",
    "latitude":"2.753889",
    "longitude":"101.826667"},
  {"id":"MYKL0057",
    "name":"Tiroi",
    "address":"Taman Tiroi, Labu, Negeri Sembilan, Malaysia.",
    "latitude":"2.741389",
    "longitude":"101.871667"},
  {"id":"MYKL0058",
    "name":"Seremban",
    "address":"Bandar Seremban, 70300 Seremban, Negeri Sembilan, Malaysia",
    "latitude":"2.718885",
    "longitude":"101.940760"},
  {"id":"MYKL0060",
    "name":"KLCC",
    "address":"Jalan Ampang, Kuala Lumpur",
    "latitude":"3.159167",
    "longitude":"101.713889"},
  {"id":"MYKL0061",
    "name":"Bandaraya",
    "address":"Jalan Raja Laut 50350 WP Kuala Lumpur",
    "latitude":"3.155556",
    "longitude":"101.694167"},
  {"id":"MYKL0062",
    "name":"Chan Sow Lin",
    "address":"Jalan Chan Sow Lin, Pudu, Kuala Lumpur, Malaysia.",
    "latitude":"3.127778",
    "longitude":"101.715278"},
  {"id":"MYKL0063",
    "name":"Bangsar",
    "address":"Jalan Bangsar 59000 Kuala Lumpur Wilayah Persekutuan Kuala Lumpur Malaysia",
    "latitude":"3.1567",
    "longitude":"101.7017"},
  {"id":"MYKL0064",
    "name":"Ampang Park",
    "address":"Ampang Park LRT Station, Jalan Ampang, 50450 Kuala Lumpur, Malaysia.",
    "latitude":"3.159722",
    "longitude":"101.718611"},
  {"id":"MYKL0065",
    "name":"Dang Wangi",
    "address":"Jalan Ampang, City Centre, Kuala Lumpur, Malaysia.",
    "latitude":"3.156667",
    "longitude":"101.701667"},
  {"id":"MYKL0066",
    "name":"Pasar Seni",
    "address":"Nearby Central Market, 50000 Kuala Lumpur, Federal Territory of Kuala Lumpur, Malaysia",
    "latitude":"3.1425",
    "longitude":"101.695278"},
  {"id":"MYKL0068",
    "name":"Masjid Jamek",
    "address":"Jalan Tun Perak 50050 WP Kuala Lumpur",
    "latitude":"3.149667",
    "longitude":"101.696417"},
  {"id":"MYKL0069",
    "name":"PWTC",
    "address":"Jalan Putra 50350 WP Kuala Lumpur",
    "latitude":"3.166389",
    "longitude":"101.693333"},
  {"id":"MYKL0070",
    "name":"Sultan Ismail",
    "address":"Jalan Sultan Ismail 50250 WP Kuala Lumpur",
    "latitude":"3.161111",
    "longitude":"101.693889"},
  {"id":"MYKL0071",
    "name":"Maluri",
    "address":"Jalan Cheras, Taman Miharja, Kuala Lumpur, Malaysia.",
    "latitude":"3.123056",
    "longitude":"101.726667"},
  {"id":"MYKL0072",
    "name":"Miharja",
    "address":"Jalan 1/93, Taman Miharja, Kuala Lumpur, Malaysia.",
    "latitude":"3.120833",
    "longitude":"101.7175"},
  {"id":"MYKL0073",
    "name":"Sentul(Bandar Baru Sentul)",
    "address":"Bandar Baru Sentul, 51000 Kuala Lumpur, Federal Territory of Kuala Lumpur, Malaysia",
    "latitude":"3.178633",
    "longitude":"101.695485"},
  {"id":"MYKL0074",
    "name":"Dato' Keramat",
    "address":"Kampung Datuk Keramat, Kuala Lumpur, Malaysia.",
    "latitude":"3.165",
    "longitude":"101.731667"},
  {"id":"MYKL0075",
    "name":"Bukit Jalil",
    "address":"Bukit Jalil, 57000 Kuala Lumpur, Federal Territory of Kuala Lumpur, Malaysia",
    "latitude":"3.058056",
    "longitude":"101.691944"},
  {"id":"MYKL0076",
    "name":"Sri Petaling",
    "address":"Sri Petaling, Kuala Lumpur, Malaysia.",
    "latitude":"3.061389",
    "longitude":"101.686944"},
  {"id":"MYKL0078",
    "name":"Taman Melati",
    "address":"Persiaran Pertahanan, Gombak Setia, Kuala Lumpur, Malaysia.",
    "latitude":"3.219444",
    "longitude":"101.721667"},
  {"id":"MYKL0079",
    "name":"Salak Selatan",
    "address":"Jalan Sungai Besi, Salak South, Kuala Lumpur, Malaysia.",
    "latitude":"3.101944",
    "longitude":"101.706111"},
  {"id":"MYKL0080",
    "name":"Taman Bahagia",
    "address":"SS 2, 47300 Petaling Jaya, Selangor, Malaysia",
    "latitude":"3.110556",
    "longitude":"101.6125"},
  {"id":"MYKL0081",
    "name":"Kelana Jaya",
    "address":"Ss 4, 47301 Petaling Jaya, Selangor, Malaysia",
    "latitude":"3.1125",
    "longitude":"101.603889"},
  {"id":"MYKL0082",
    "name":"Taman Jaya",
    "address":"Persiaran Barat, Section 52, Petaling Jaya, Selangor, Malaysia.",
    "latitude":"3.103889",
    "longitude":"101.645"},
  {"id":"MYKL0083",
    "name":"Asia Jaya",
    "address":"Jalan Utara and Jalan 51A/223, Section 51A, Petaling Jaya, Selangor, Malaysia.",
    "latitude":"3.104167",
    "longitude":"101.637778"},
  {"id":"MYKL0084",
    "name":"Sungai Besi",
    "address":"Sungai Besi, 57000, Kuala Lumpur, Malaysia.",
    "latitude":"3.063889",
    "longitude":"101.707778"},
  {"id":"MYKL0085",
    "name":"Sentul Timur",
    "address":"Jalan 2/48A Bandar Baru Sentul, 51000 WP Kuala Lumpur",
    "latitude":"3.185833",
    "longitude":"101.695278"},
  {"id":"MYKL0086",
    "name":"Plaza Rakyat",
    "address":"Jalan Pudu 56000 WP Kuala Lumpur",
    "latitude":"3.144609",
    "longitude":"101.701659"},
  {"id":"MYKL0087",
    "name":"Pudu",
    "address":"Jalan Sarawak, Pudu, Kuala Lumpur, Malaysia",
    "latitude":"3.134944",
    "longitude":"101.712"},
  {"id":"MYKL0088",
    "name":"Pandan Jaya",
    "address":"Jalan Pandan 3/8 and Jalan Pandan Indah, Pandan Jaya, Ampang Jaya, Selangor, Malaysia.",
    "latitude":"3.13",
    "longitude":"101.738611"},
  {"id":"MYKL0089",
    "name":"Pandan Indah",
    "address":"Jalan Pandan Indah 22, Pandan Indah, Ampang Jaya, Selangor, Malaysia.",
    "latitude":"3.134444",
    "longitude":"101.746389"},
  {"id":"MYKL0090",
    "name":"Cempaka",
    "address":"Jalan Pandan Indah 6/1, Pandan Indah, Ampang Jaya, Selangor, Malaysia.",
    "latitude":"3.138333",
    "longitude":"101.752778"},
  {"id":"MYKL0091",
    "name":"Cahaya",
    "address":"Jalan Cahaya 7, Taman Cahaya Indah, Pandan Indah, Ampang Jaya, Selangor, Malaysia.",
    "latitude":"3.140556",
    "longitude":"101.756389"},
  {"id":"MYKL0092",
    "name":"Ampang",
    "address":"Kampung Melayu Ampang, 68000 Ampang Jaya, Selangor, Malaysia",
    "latitude":"3.150278",
    "longitude":"101.76"},
  {"id":"MYKL0093",
    "name":"Cheras",
    "address":"Jalan Jelawat Satu Sungai Besi-Taman Ikan Emas border, Kuala Lumpur, Malaysia.",
    "latitude":"3.1125",
    "longitude":"101.714167"},
  {"id":"MYKL0094",
    "name":"Bandar Tun Razak",
    "address":"Persiaran Ikhlas, Bandar Tun Razak, Kuala Lumpur, Malaysia.",
    "latitude":"3.089722",
    "longitude":"101.712222"},
  {"id":"MYKL0095",
    "name":"Universiti",
    "address":"Pantai Dalam, 59200 Kuala Lumpur, Federal Territory of Kuala Lumpur, Malaysia",
    "latitude":"3.114444",
    "longitude":"101.661667"},
  {"id":"MYKL0096",
    "name":"Kerinchi",
    "address":"Taman Bukit Pantai, 59200 Kuala Lumpur, Federal Territory of Kuala Lumpur, Malaysia",
    "latitude":"3.115278",
    "longitude":"101.668056"},
  {"id":"MYKL0097",
    "name":"Abdullah Hukum",
    "address":"Jalan Bangsar, Kampung Haji Abdullah Hukum, Kuala Lumpur, Malaysia.",
    "latitude":"3.118611",
    "longitude":"101.672778"},
  {"id":"MYKL0099",
    "name":"Kampung Baru",
    "address":"Jalan Haji Hassan Salleh, Kampung Baru, Kuala Lumpur, Malaysia.",
    "latitude":"3.161111",
    "longitude":"101.706389"},
  {"id":"MYKL0100",
    "name":"Damai",
    "address":"Jalan Datok Keramat (west), Datuk Keramat, Kuala Lumpur, Malaysia.",
    "latitude":"3.164444",
    "longitude":"101.724167"},
  {"id":"MYKL0101",
    "name":"Jelatek",
    "address":"Jalan Jelatek, AU1, Kuala Lumpur-Ampang, Selangor border, Malaysia.",
    "latitude":"3.1673",
    "longitude":"101.7353"},
  {"id":"MYKL0102",
    "name":"Setiawangsa",
    "address":"Au 1, 54200 Ampang Jaya, Selangor, Malaysia",
    "latitude":"3.175589",
    "longitude":"101.735770"},
  {"id":"MYKL0103",
    "name":"Sri Rampai",
    "address":"Taman Sri Rampai, Jalan Wangsa Perdana 1, Kuala Lumpur, Malaysia.",
    "latitude":"3.198889",
    "longitude":"101.736944"},
  {"id":"MYKL0104",
    "name":"Wangsa Maju",
    "address":"Jalan 1/27A and Jalan 16/27B, Wangsa Maju, Kuala Lumpur, Malaysia.",
    "latitude":"3.205556",
    "longitude":"101.731389"},
  {"id":"MYKL0105",
    "name":"Gombak",
    "address":"Gombak LRT Station, Jalan Terminal Putra, 53100 Kuala Lumpur",
    "latitude":"3.230946",
    "longitude":"101.724191"},
  {"id":"MYKL0106",
    "name":"Serendah",
    "address":"48200 Serendah, Selangor, Malaysia",
    "latitude":"3.375833",
    "longitude":"101.614722"},
  {"id":"MYKL0107",
    "name":"Batang Kali",
    "address":"Batang Kali, Hulu Selangor, Selangor, Malaysia.",
    "latitude":"3.468333",
    "longitude":"101.638056"},
  {"id":"MYKL0108",
    "name":"Rasa",
    "address":"Rasa, Hulu Selangor, Selangor, Malaysia.",
    "latitude":"3.5",
    "longitude":"101.634167"},
  {"id":"MYKL0109",
    "name":"Kuala Kubu Bharu",
    "address":"44000 Kuala Kubu Bharu, Selangor, Malaysia",
    "latitude":"3.553252",
    "longitude":"101.639592"},
  {"id":"MYKL0110",
    "name":"Tanjung Malim",
    "address":"Kampung Stesen Tanjong Malim, 35900 Tanjong Malim, Perak, Malaysia",
    "latitude":"3.684913",
    "longitude":"101.518422"},
  {"id":"MYKL0111",
    "name":"Senawang",
    "address":"Taman Bukit Emas, 70450 Seremban, Negeri Sembilan, Malaysia",
    "latitude":"2.690431",
    "longitude":"101.972017"},
  {"id":"MYKL0112",
    "name":"Sungai Gadut",
    "address":"Taman Pinggiran Senawang, 71450 Seremban, Negeri Sembilan, Malaysia.",
    "latitude":"2.660218",
    "longitude":"101.996275"},
  {"id":"MYKL0113",
    "name":"Batu Kentonmen",
    "address":"Kem Batu Kentonmen, 51100 Kuala Lumpur, Federal Territory of Kuala Lumpur, Malaysia",
    "latitude":"3.198246",
    "longitude":"101.681163"},
  {"id":"MYKL0114",
    "name":"Kampung Batu",
    "address":"Kampung Batu, 51200 Kuala Lumpur, Federal Territory of Kuala Lumpur, Malaysia",
    "latitude":"3.204443",
    "longitude":"101.675691"},
  {"id":"MYKL0115",
    "name":"Taman Wahyu",
    "address":"Taman Mastiara, 51200 Kuala Lumpur, Federal Territory of Kuala Lumpur, Malaysia",
    "latitude":"3.214439",
    "longitude":"101.672250"},
  {"id":"MYKL0116",
    "name":"Batu Caves",
    "address":"Batu Caves, 68100 Batu Caves, Selangor, Malaysia",
    "latitude":"3.237713",
    "longitude":"101.681359"},
  {"id":"MYKL0117",
    "name":"Taman Paramount",
    "address":"Taman Paramount, 46300 Petaling Jaya, Selangor, Malaysia",
    "latitude":"3.104444",
    "longitude":"101.623056"},
  {"id":"MYKL0119",
    "name":"Awan Besar",
    "address":"Bukit OUG, Kuala Lumpur, Malaysia",
    "latitude":"3.0621",
    "longitude":"101.6706"},
  {"id":"MYKL0120",
    "name":"Muhibbah",
    "address":"Kampung Muhibbah, Kuala Lumpur, Malaysia.",
    "latitude":"3.062056",
    "longitude":"101.6625"},
  {"id":"MYKL0121",
    "name":"Alam Sutera",
    "address":"Alam Sutera, Bukit Jalil, Kuala Lumpur Malaysia",
    "latitude":"3.054778",
    "longitude":"101.656444"},
  {"id":"MYKL0122",
    "name":"Kinrara BK5",
    "address":"217, 148, Jalan Puchong, 47100 Puchong, Selangor, Malaysia",
    "latitude":"3.050556",
    "longitude":"101.644222"},
  {"id":"MYKL0123",
    "name":"Sunway-Setia Jaya",
    "address":"Ss 10, 46150 Petaling Jaya, Selangor, Malaysia",
    "latitude":"3.083056",
    "longitude":"101.611111"},
  {"id":"MYKL0124",
    "name":"Mentari",
    "address":"Jalan PJS 8/9, Bandar Sunway, 46150 Petaling Jaya, Selangor",
    "latitude":"3.076208",
    "longitude":"101.610209"},
  {"id":"MYKL0125",
    "name":"Sunway Lagoon",
    "address":"Bandar Sunway, Subang Jaya, Selangor, Malaysia",
    "latitude":"3.069139",
    "longitude":"101.60675"},
  {"id":"MYKL0126",
    "name":"SunMed",
    "address":"BRT Sunway Line, Ss 10, 46150 Petaling Jaya, Selangor",
    "latitude":"3.065626",
    "longitude":"101.608582"},
  {"id":"MYKL0127",
    "name":"SunU-Monash",
    "address":"Jalan Lagoon Selatan, Bandar Sunway, 47500 Petaling Jaya, Selangor",
    "latitude":"3.065494",
    "longitude":"101.601592"},
  {"id":"MYKL0128",
    "name":"South Quay",
    "address":"Jalan Subang 1 Subang Light Industrial Park 47500 Subang Jaya Selangor",
    "latitude":"3.061610",
    "longitude":"101.596568"},
  {"id":"MYKL0129",
    "name":"USJ7",
    "address":"194, Persiaran Kewajipan, 47600 Subang Jaya, Selangor, Malaysia",
    "latitude":"3.055172",
    "longitude":"101.591950"},
  {"id":"MYKL0130",
    "name":"Rembau",
    "address":"Jalan Stesyen, Kampung Batu, 71300 Rembau, Negeri Sembilan, Malaysia",
    "latitude":"2.593338",
    "longitude":"102.094461"},
  {"id":"MYKL0131",
    "name":"Pulau Sebang/Tampin",
    "address":"78000 Alor Gajah, Malacca, Malaysia",
    "latitude":"2.463280",
    "longitude":"102.227051"},
  {"id":"MYKL0132",
    "name":"Batang Melaka",
    "address":"73000 Batang Melaka, Malacca",
    "latitude":"2.472232",
    "longitude":"102.413106"},
  {"id":"MYKL0133",
    "name":"Gemas",
    "address":"Kawasan Industri Gemas, 73400 Gemas, Negeri Sembilan",
    "latitude":"2.580047",
    "longitude":"102.611900"},
  {"id":"MYKL0134",
    "name":"IOI Puchong Jaya",
    "address":"Puchong Jaya, Puchong Selangor, Malaysia",
    "latitude":"3.048083",
    "longitude":"101.620889"},
  {"id":"MYKL0135",
    "name":"Pusat Bandar Puchong",
    "address":"Pusat Bandar Puchong, 47100 Puchong, Selangor, Malaysia",
    "latitude":"3.033278",
    "longitude":"101.616028"},
  {"id":"MYKL0136",
    "name":"Taman Perindustrian Puchong",
    "address":"Taman Perindustrian Puchong, 47100 Puchong, Selangor, Malaysia",
    "latitude":"3.022861",
    "longitude":"101.6135"},
  {"id":"MYKL0137",
    "name":"Bandar Puteri",
    "address":"Bandar Puteri Puchong, Puchong Selangor, Malaysia",
    "latitude":"3.017056",
    "longitude":"101.612833"},
  {"id":"MYKL0138",
    "name":"Puchong Perdana",
    "address":"Puchong Perdana, Puchong Selangor, Malaysia",
    "latitude":"3.007778",
    "longitude":"101.604972"},
  {"id":"MYKL0139",
    "name":"Puchong Prima",
    "address":"Puchong Prima, Puchong Selangor, Malaysia",
    "latitude":"2.999944",
    "longitude":"101.596694"},
  {"id":"MYKL0140",
    "name":"Putra Heights",
    "address":"Persiaran Putra Indah, Putra Heights, 47650 Subang Jaya, Selangor, Malaysia.",
    "latitude":"2.996056",
    "longitude":"101.575556"},
  {"id":"MYKL0141",
    "name":"Lembah Subang",
    "address":"Jalan PJU 1a/46, Taman Putra Damai, 47301 Petaling Jaya, Selangor, Malaysia",
    "latitude":"3.112058",
    "longitude":"101.591240"},
  {"id":"MYKL0142",
    "name":"Ara Damansara",
    "address":"Ara Damansara, 47301 Petaling Jaya, Selangor, Malaysia",
    "latitude":"3.108361",
    "longitude":"101.586472"},
  {"id":"MYKL0143",
    "name":"Glenmarie",
    "address":"Jalan Lapangan Terbang Subang, Ara Damansara, 40150 Petaling Jaya, Selangor, Malaysia",
    "latitude":"3.0958",
    "longitude":"101.5905"},
  {"id":"MYKL0144",
    "name":"SS 15",
    "address":"47500 Subang Jaya, Selangor, Malaysia",
    "latitude":"3.0758",
    "longitude":"101.5861"},
  {"id":"MYKL0145",
    "name":"SS 18",
    "address":"Ss 18, 47500 Subang Jaya, Selangor, Malaysia",
    "latitude":"3.067166",
    "longitude":"101.586114"},
  {"id":"MYKL0146",
    "name":"Taipan",
    "address":"38, Jalan USJ 6/6l, Usj 6, 47610 Subang Jaya, Selangor, Malaysia",
    "latitude":"3.047976",
    "longitude":"101.590550"},
  {"id":"MYKL0147",
    "name":"Wawasan",
    "address":"47630 Subang Jaya, Selangor, Malaysia",
    "latitude":"3.035059",
    "longitude":"101.588091"},
  {"id":"MYKL0148",
    "name":"USJ 21",
    "address":"Persiaran Kewajipan, 47600 Subang Jaya, Selangor, Malaysia",
    "latitude":"3.029875",
    "longitude":"101.581698"},
  {"id":"MYKL0149",
    "name":"Alam Megah",
    "address":"Putra Bestari, 40400 Shah Alam, Selangor, Malaysia",
    "latitude":"3.023144",
    "longitude":"101.572078"},
  {"id":"MYKL0150",
    "name":"Subang Alam",
    "address":"Taman Alam Megah 40400 Shah Alam, Selangor, Malaysia",
    "latitude":"3.007878",
    "longitude":"101.572197"},
  {"id":"MYKL0151",
    "name":"Padang Besar",
    "address":"Padang Besar, 02100 Padang Besar, Perlis",
    "latitude":"6.662200",
    "longitude":"100.319497"},
  {"id":"MYKL0152",
    "name":"Bukit Ketri",
    "address":"02450 Kangar, Perlis",
    "latitude":"6.523715",
    "longitude":"100.257259"},
  {"id":"MYKL0153",
    "name":"Arau",
    "address":"Arau, 02600 Arau, Perlis",
    "latitude":"6.431954",
    "longitude":"100.268362"},
  {"id":"MYKL0154",
    "name":"Kodiang",
    "address":"Kampung Bachang Manis, 06100 Ayer Hitam, Kedah",
    "latitude":"6.370630",
    "longitude":"100.302694"},
  {"id":"MYKL0155",
    "name":"Anak Bukit",
    "address":"Anak Bukit, 05150 Alor Setar, Kedah",
    "latitude":"6.183307",
    "longitude":"100.374861"},
  {"id":"MYKL0156",
    "name":"Alor Star",
    "address":"Bandar Alor Setar, 05300 Alor Setar, Kedah",
    "latitude":"6.112919",
    "longitude":"100.369443"},
  {"id":"MYKL0157",
    "name":"Kobah",
    "address":"Kampung Banggul Wan Awang, 06700 Pendang, Kedah",
    "latitude":"5.972311",
    "longitude":"100.440734"},
  {"id":"MYKL0158",
    "name":"Gurun",
    "address":"Kampung Pulau Chengai, 08300 Gurun, Kedah",
    "latitude":"5.819712",
    "longitude":"100.478333"},
  {"id":"MYKL0159",
    "name":"Sungai Petani",
    "address":"Sungai Petani, 08000 Sungai Petani, Kedah",
    "latitude":"5.643173",
    "longitude":"100.490116"},
  {"id":"MYKL0160",
    "name":"Tasek Gelugor",
    "address":"13100 Tasek Gelugor, Penang",
    "latitude":"5.482095",
    "longitude":"100.497654"},
  {"id":"MYKL0161",
    "name":"Bukit Mertajam",
    "address":"14000 Bukit Mertajam, Penang",
    "latitude":"5.366277",
    "longitude":"100.447971"},
  {"id":"MYKL0162",
    "name":"Butterworth",
    "address":"12000 Butterworth, Penang",
    "latitude":"5.393717",
    "longitude":"100.366533"},
  {"id":"MYKL0164",
    "name":"Simpang Ampat",
    "address":"33, Solok Nuri 3, Kampung Manggis, 14100 Simpang Ampat, Pulau Pinang",
    "latitude":"5.286088",
    "longitude":"100.480816"},
  {"id":"MYKL0165",
    "name":"Nibong Tebal",
    "address":"Nibong Tebal, Penang",
    "latitude":"5.169441",
    "longitude":"100.479760"},
  {"id":"MYKL0166",
    "name":"Parit Buntar",
    "address":"Jalan Bomba, Kampung Permatang Tok Mamat, 34200 Parit Buntar, Perak",
    "latitude":"5.130542",
    "longitude":"100.486456"},
  {"id":"MYKL0167",
    "name":"Bagan Serai",
    "address":"34300 Bagan Serai, Perak",
    "latitude":"5.028382",
    "longitude":"100.527446"},
  {"id":"MYKL0168",
    "name":"Kamunting",
    "address":"34600 Kamunting, Perak",
    "latitude":"4.895893",
    "longitude":"100.719108"},
  {"id":"MYKL0169",
    "name":"Taiping",
    "address":"34000 Taiping, Perak",
    "latitude":"4.852097",
    "longitude":"100.731547"},
  {"id":"MYKL0170",
    "name":"Padang Rengas",
    "address":"Jalan Pertanian, 33700 Padang Rengas, Perak",
    "latitude":"4.778091",
    "longitude":"100.857523"},
  {"id":"MYKL0171",
    "name":"Kuala Kangsar",
    "address":"33000 Kuala Kangsar, Perak",
    "latitude":"4.776468",
    "longitude":"100.932332"},
  {"id":"MYKL0172",
    "name":"Sungai Siput",
    "address":"31100 Sungai Siput, Perak",
    "latitude":"4.818793",
    "longitude":"101.071294"},
  {"id":"MYKL0173",
    "name":"Tasek",
    "address":"Kawasan Perindustrian Igb, 31400 Ipoh, Perak",
    "latitude":"4.652866",
    "longitude":"101.120276"},
  {"id":"MYKL0174",
    "name":"Ipoh",
    "address":"Stesen KTM Ipoh, 30000 Ipoh, Perak",
    "latitude":"4.597499",
    "longitude":"101.073290"},
  {"id":"MYKL0175",
    "name":"Batu Gajah",
    "address":"Kampung Belangkor, 30200 Batu Gajah, Perak",
    "latitude":"4.463587",
    "longitude":"101.047421"},
  {"id":"MYKL0176",
    "name":"Kampar",
    "address":"31900 Kampar, Perak",
    "latitude":"4.302820",
    "longitude":"101.153524"},
  {"id":"MYKL0177",
    "name":"Tapah Road",
    "address":"Kampung Kassim, 35400 Tapah Road, Perak",
    "latitude":"4.172775",
    "longitude":"101.189167"},
  {"id":"MYKL0178",
    "name":"Sungkai",
    "address":"35600 Sungkai, Perak",
    "latitude":"4.006063",
    "longitude":"101.301521"},
  {"id":"MYKL0179",
    "name":"Slim River",
    "address":"Kampung Manggis, 35800 Slim River, Perak",
    "latitude":"3.827050",
    "longitude":"101.402379"},
  {"id":"MYKL0180",
    "name":"Behrang",
    "address":"35950 Behrang Stesen, Perak",
    "latitude":"3.745521",
    "longitude":"101.449742"},
  {"id":"MYKL0296",
    "name":"Bukit Tengah",
    "address":"14000 Bukit Mertajam, Penang",
    "latitude":"5.366223",
    "longitude":"100.447939"},
  {"id":"MYKL0297",
    "name":"Kampung Selamat",
    "address":"Kota Damansara, 47810 Petaling Jaya, Selangor",
    "latitude":"3.197278",
    "longitude":"101.578437"},
  {"id":"MYKL0298",
    "name":"Kwasa Damansara",
    "address":"U 4, 40160 Shah Alam, Selangor",
    "latitude":"3.176408",
    "longitude":"101.572335"},
  {"id":"MYKL0299",
    "name":"Kwasa Sentral",
    "address":"U 4, 40160 Shah Alam, Selangor",
    "latitude":"3.169901",
    "longitude":"101.564813"},
  {"id":"MYKL0300",
    "name":"Kota Damansara",
    "address":"Persiaran Surian Kota Damansara, 47410 Petaling Jaya, Selangor",
    "latitude":"3.150302",
    "longitude":"101.578689"},
  {"id":"MYKL0301",
    "name":"Surian",
    "address":"Persiaran Surian Tunnel & Persiaran Surian Kota Damansara, 47410 Petaling Jaya, Selangor",
    "latitude":"3.149553",
    "longitude":"101.593951"},
  {"id":"MYKL0302",
    "name":"Mutiara Damansara",
    "address":"Mutiara Damansara 47820 Petaling Jaya, Selangor",
    "latitude":"3.155283",
    "longitude":"101.608729"},
  {"id":"MYKL0303",
    "name":"Bandar Utama",
    "address":"Bandar Utama, 47800 Petaling Jaya, Selangor",
    "latitude":"3.146741",
    "longitude":"101.618707"},
  {"id":"MYKL0304",
    "name":"Taman Tun Dr Ismail/TTDI",
    "address":"Jalan Damansara 60000 Kuala Lumpur, Wilayah Persekutuan Kuala Lumpur",
    "latitude":"3.136330",
    "longitude":"101.630465"},
  {"id":"MYKL0305",
    "name":"Phileo Damansara",
    "address":"Bukit Kiara, 60000 Kuala Lumpur, Federal Territory of Kuala Lumpur",
    "latitude":"3.129255",
    "longitude":"101.643017"},
  {"id":"MYKL0306",
    "name":"Pusat Bandar Damansara",
    "address":"Pusat Bandar Damansara 50490 Kuala Lumpur, Federal Territory of Kuala Lumpur",
    "latitude":"3.143272",
    "longitude":"101.662423"},
  {"id":"MYKL0307",
    "name":"Semantan ",
    "address":"Jalan Semantan 50490 Kuala Lumpur, Wilayah Persekutuan Kuala Lumpur",
    "latitude":"3.151012",
    "longitude":"101.665365"},
  {"id":"MYKL0182",
    "name":"Segamat",
    "address":"Segamat Pusat Latihan Jururawat, 85000 Segamat District, Johor",
    "latitude":"2.507060",
    "longitude":"102.813702"},
  {"id":"MYKL0185",
    "name":"Labis",
    "address":"Labis, 85300 Labis, Johor",
    "latitude":"2.382490",
    "longitude":"103.020543"},
  {"id":"MYKL0187",
    "name":"Bekok",
    "address":"Kampung Bekok, 85400 Bekok, Johor",
    "latitude":"2.295317",
    "longitude":"103.129840"},
  {"id":"MYKL0190",
    "name":"Paloh",
    "address":"Paloh Kampung Muhibbah, 85400 Paloh, Johor",
    "latitude":"2.186749",
    "longitude":"103.194702"},
  {"id":"MYKL0192",
    "name":"Chamek",
    "address":"Jalan Get 85400 Paloh, Johor",
    "latitude":"2.142642",
    "longitude":"103.238708"},
  {"id":"MYKL0194",
    "name":"Kluang",
    "address":"Kluang Kampung Masjid Lama, 86000 Kluang, Johor",
    "latitude":"2.033605",
    "longitude":"103.317530"},
  {"id":"MYKL0196",
    "name":"Rengam",
    "address":"Rengam, 86300 Renggam, Johor",
    "latitude":"1.884747",
    "longitude":"103.403128"},
  {"id":"MYKL0197",
    "name":"Layang Layang",
    "address":"Layang-layang, 81850 Layang-Layang, Johor",
    "latitude":"1.814011",
    "longitude":"103.474923"},
  {"id":"MYKL0199",
    "name":"Kulai",
    "address":"Kulai Taman Mewah, 81000 Kulai, Johor",
    "latitude":"1.662945",
    "longitude":"103.599767"},
  {"id":"MYKL0203",
    "name":"Kempas Baru",
    "address":"Kempas Permatang, 81200 Johor Bahru, Johor",
    "latitude":"1.535534",
    "longitude":"103.721656"},
  {"id":"MYKL0206",
    "name":"JB Sentral",
    "address":"Jalan Tun Abdul Razak, Bandar Johor Bahru, 80000 Johor Bahru, Johor",
    "latitude":"1.463048",
    "longitude":"103.764681"},
  {"id":"MYKL0207",
    "name":"Woodlands Train Checkpoint(Singapura)",
    "address":"Woodlands Train Checkpoint Singapore",
    "latitude":"1.443757",
    "longitude":"103.769579"},
  {"id":"MYKL0208",
    "name":"Tumpat",
    "address":"Jalan Stesen Pekan Tumpat, 16200 Tumpat, Kelantan",
    "latitude":"6.199022",
    "longitude":"102.167516"},
  {"id":"MYKL0209",
    "name":"Kg.Kok Pasir",
    "address":"16200 Wakaf Bharu, Kelantan",
    "latitude":"6.143423",
    "longitude":"102.226992"},
  {"id":"MYKL0211",
    "name":"Wakaf Bharu",
    "address":"16210 Wakaf Bharu, Kelantan",
    "latitude":"6.118297",
    "longitude":"102.200509"},
  {"id":"MYKL0212",
    "name":"Bunut Susu",
    "address":"Bunut Susu Kampung Guntong Klinik, 17030 Pasir Mas, Kelantan",
    "latitude":"6.096001",
    "longitude":"102.176258"},
  {"id":"MYKL0214",
    "name":"Pasir Mas",
    "address":"Pasir Mas Pekan Pasir Mas, 17000 Pasir Mas, Kelantan",
    "latitude":"6.042669",
    "longitude":"102.142434"},
  {"id":"MYKL0215",
    "name":"Chicha Tinggi",
    "address":"Jalan Pasir Mas - Latif 17000 Pasir Mas, Kelantan",
    "latitude":"6.021583",
    "longitude":"102.140233"},
  {"id":"MYKL0216",
    "name":"To' Uban",
    "address":"To'Uban 17040 Pasir Mas, Kelantan",
    "latitude":"5.964881",
    "longitude":"102.144328"},
  {"id":"MYKL0217",
    "name":"Sg.Keladi",
    "address":"Sg. Keladi 17040 Pasir Mas, Kelantan",
    "latitude":"5.904783",
    "longitude":"102.158886"},
  {"id":"MYKL0218",
    "name":"Bukit Panau",
    "address":"Bukit Panau 17500 Tanah Merah, Kelantan",
    "latitude":"5.893633",
    "longitude":"102.156675"},
  {"id":"MYKL0219",
    "name":"Tanah Merah",
    "address":"Tanah Merah, 17500 Tanah Merah, Kelantan",
    "latitude":"5.806381",
    "longitude":"102.146656"},
  {"id":"MYKL0221",
    "name":"Temangan",
    "address":"Temangan 18500 Temangan, Kelantan",
    "latitude":"5.702201",
    "longitude":"102.151656"},
  {"id":"MYKL0222",
    "name":"Sg.Nal",
    "address":"Sg. Nal 18000 Kuala Krai, Kelantan",
    "latitude":"5.590565",
    "longitude":"102.178375"},
  {"id":"MYKL0223",
    "name":"Krai",
    "address":"Krai Pekan Kuala Krai, 18000 Kuala Krai, Kelantan",
    "latitude":"5.529851",
    "longitude":"102.202896"},
  {"id":"MYKL0224",
    "name":"Pahi",
    "address":"Pahi 18000 Kuala Krai, Kelantan",
    "latitude":"5.471149",
    "longitude":"102.222909"},
  {"id":"MYKL0225",
    "name":"Manek Urai",
    "address":"18050 Kuala Krai, Kelantan",
    "latitude":"5.390850",
    "longitude":"102.232215"},
  {"id":"MYKL0227",
    "name":"Kg Baru Sg.Mengkuang",
    "address":"18000 Kuala Krai, Kelantan",
    "latitude":"5.330252",
    "longitude":"102.203250"},
  {"id":"MYKL0228",
    "name":"Ulu Temiang",
    "address":"Kampung Slow Temiang, 18000 Kuala Krai, Kelantan",
    "latitude":"5.307417",
    "longitude":"102.156273"},
  {"id":"MYKL0229",
    "name":"Kg. Baru Bkt Abu",
    "address":"Kg. Baru Bukit Abu Kuala Krai, Kelantan",
    "latitude":"5.329642",
    "longitude":"102.121468"},
  {"id":"MYKL0230",
    "name":"Bukit Abu",
    "address":"Bukit Abu Kuala Krai, Kelantan",
    "latitude":"5.354138",
    "longitude":"102.112127"},
  {"id":"MYKL0231",
    "name":"Kuala Gris",
    "address":"Az Motor Parts Kuala Gris,, 18200 Dabong, Kelantan",
    "latitude":"5.390273",
    "longitude":"102.064025"},
  {"id":"MYKL0232",
    "name":"Dabong",
    "address":"Dabong 18200 Dabong, Kelantan",
    "latitude":"5.376875",
    "longitude":"102.009933"},
  {"id":"MYKL0233",
    "name":"Kemubu",
    "address":"Kompleks Perkayuan Kelantan Sdn. Bhd. Kampung Stong, Kemubu, Kelantan, 18200 Kuala Krai, Kelantan",
    "latitude":"5.294097",
    "longitude":"102.019050"},
  {"id":"MYKL0234",
    "name":"Sri Jaya",
    "address":"Sri Jaya 18200 Kuala Krai, Kelantan",
    "latitude":"5.248570",
    "longitude":"102.009832"},
  {"id":"MYKL0235",
    "name":"Sri Mahligai",
    "address":"Jalan Kg Tasin 18200 Kuala Krai, Kelantan",
    "latitude":"5.232944",
    "longitude":"102.010174"},
  {"id":"MYKL0236",
    "name":"Sri Bintang",
    "address":"Sri Bintang 18200 Kuala Krai, Kelantan",
    "latitude":"5.209049",
    "longitude":"102.012591"},
  {"id":"MYKL0237",
    "name":"Sungai Tasin",
    "address":"Sg. Tasin 18200 Kuala Krai, Kelantan",
    "latitude":"5.201075",
    "longitude":"102.013926"},
  {"id":"MYKL0238",
    "name":"Jerek Baru",
    "address":"Jalan RKT Jerek 18300, Kelantan",
    "latitude":"5.173691",
    "longitude":"102.010042"},
  {"id":"MYKL0239",
    "name":"Bertam",
    "address":"Jalan Bertam - Jerek Kampung Bertam Lama, 18300, Kelantan",
    "latitude":"5.152128",
    "longitude":"102.043505"},
  {"id":"MYKL0240",
    "name":"Bertam Baru",
    "address":"Jalan Bertam - Kemubu Kampung Bertam Baru, 18300, Kelantan",
    "latitude":"5.142598",
    "longitude":"102.045695"},
  {"id":"MYKL0241",
    "name":"Limau Kasturi",
    "address":"Limau Kasturi 18300 Kampong Limau kasturi, Kelantan",
    "latitude":"5.079926",
    "longitude":"102.069381"},
  {"id":"MYKL0242",
    "name":"Sg. Sirian",
    "address":"Sg. Sirian 18300, Kelantan",
    "latitude":"5.033737",
    "longitude":"102.050332"},
  {"id":"MYKL0243",
    "name":"Kg.Sungai Sirian",
    "address":"18300, Kelantan",
    "latitude":"5.024808",
    "longitude":"102.039215"},
  {"id":"MYKL0244",
    "name":"Sungai Koyan",
    "address":"Sg. Koyan 18300 Gua Musang, Kelantan",
    "latitude":"4.965206",
    "longitude":"102.011411"},
  {"id":"MYKL0245",
    "name":"Pan Malayan",
    "address":"Pan Malayan 18300 Gua Musang, Kelantan",
    "latitude":"4.920042",
    "longitude":"101.979021"}]